# Time (s),Altitude (m),Vertical velocity (m/s),Vertical acceleration (m/s²),Total velocity (m/s),Total acceleration (m/s²),Position East of launch (m),Position North of launch (m),Lateral distance (m),Lateral direction (°),Lateral velocity (m/s),Lateral acceleration (m/s²),Latitude (°),Longitude (°),Gravitational acceleration (m/s²),Angle of attack (°),Roll rate (°/s),Pitch rate (°/s),Yaw rate (°/s),Mass (g),Propellant mass (g),Longitudinal moment of inertia (kg·m²),Rotational moment of inertia (kg·m²),CP location (cm),CG location (cm),Stability margin calibers (​),Mach number (​),Reynolds number (​),Thrust (N),Drag force (N),Drag coefficient (​),Axial drag coefficient (​),Friction drag coefficient (​),Pressure drag coefficient (​),Base drag coefficient (​),Normal force coefficient (​),Pitch moment coefficient (​),Yaw moment coefficient (​),Side force coefficient (​),Roll moment coefficient (​),Roll forcing coefficient (​),Roll damping coefficient (​),Pitch damping coefficient (​),Coriolis acceleration (m/s²),Reference length (cm),Reference area (cm²),Vertical orientation (zenith) (°),Lateral orientation (azimuth) (°),Wind velocity (m/s),Air temperature (°C),Air pressure (mbar),Speed of sound (m/s),Simulation time step (s),Computation time (s)
# Event LAUNCH occurred at t=0 seconds
# Event IGNITION occurred at t=0 seconds
0,0,0,24.094,0,24.094,0,0,0,0,0,0,52.262,-0.11832,9.8126,90,0,0,0,878.78,96.637,0.058756,5.415e-4,NaN,45.214,NaN,0.022904,380061,29.797,0,0.58935,0,0.33036,0.13892,0.12007,NaN,NaN,NaN,NaN,NaN,NaN,NaN,NaN,0,5.5,23.758,90,0,NaN,14.857,1010.7,340.3,0.01,8.3731e-4
0.01,0.0012047,0.24094,90.663,0.24094,90.663,0,0,0,0,0,0,52.262,-0.11832,9.8126,88.224,0,0,0,878.78,96.637,0.058756,5.415e-4,NaN,45.214,NaN,0.022851,379183,88.296,3.8023e-6,0.58941,4.33e-5,0.33042,0.13892,0.12007,NaN,NaN,NaN,NaN,NaN,NaN,NaN,NaN,2.1507e-5,5.5,23.758,90,0,NaN,14.857,1010.7,340.3,0.01,9.8983e-4
0.02,0.0081487,1.1479,116.18,1.1479,116.18,0,0,0,0,0,0,52.262,-0.11832,9.8126,81.575,0,0,0,878.42,96.277,0.058747,5.4147e-4,NaN,45.208,NaN,0.023024,382063,110.67,3.8351e-4,0.58923,0.0043018,0.33024,0.13892,0.12007,NaN,NaN,NaN,NaN,NaN,NaN,NaN,NaN,1.0247e-4,5.5,23.758,90,0,NaN,14.857,1010.7,340.3,0.01,0.0011063
# Event LIFTOFF occurred at t=0.03 seconds
0.03,0.025439,2.3103,117.88,2.3103,117.88,0,0,0,0,0,0,52.262,-0.11832,9.8126,73.358,0,0,0,877.89,95.745,0.058733,5.4141e-4,NaN,45.199,NaN,0.023705,393357,112.11,0.0028409,0.58856,0.030062,0.32956,0.13892,0.12007,NaN,NaN,NaN,NaN,NaN,NaN,NaN,NaN,2.0622e-4,5.5,23.758,90,0,NaN,14.857,1010.7,340.3,0.01,0.0012477
0.04,0.054439,3.4899,113.92,3.4899,113.92,0,0,0,0,0,0,52.262,-0.11832,9.8126,65.638,0,0,0,877.22,95.08,0.058716,5.4134e-4,NaN,45.188,NaN,0.024862,412552,108.55,0.0088482,0.58748,0.085121,0.32847,0.13893,0.12008,NaN,NaN,NaN,NaN,NaN,NaN,NaN,NaN,3.1152e-4,5.5,23.758,90,0,NaN,14.857,1010.7,340.3,0.01,0.0013616
0.05,0.095037,4.6298,109.93,4.6298,109.93,0,0,0,0,0,0,52.262,-0.11832,9.8126,58.935,0,0,0,876.57,94.421,0.0587,5.4127e-4,NaN,45.177,NaN,0.026366,437504,104.98,0.018696,0.58617,0.15993,0.32715,0.13893,0.12009,NaN,NaN,NaN,NaN,NaN,NaN,NaN,NaN,4.1327e-4,5.5,23.758,90,0,NaN,14.856,1010.7,340.3,0.01,0.0014951
0.06,0.14683,5.7298,109.96,5.7298,109.96,0,0,0,0,0,0,52.262,-0.11832,9.8126,53.348,0,0,0,875.91,93.761,0.058683,5.412e-4,NaN,45.165,NaN,0.028205,468033,104.95,0.032097,0.5847,0.23991,0.32566,0.13894,0.1201,NaN,NaN,NaN,NaN,NaN,NaN,NaN,NaN,5.1145e-4,5.5,23.758,90,0,NaN,14.856,1010.7,340.3,0.01,0.001644
0.07,0.20963,6.8301,112.77,6.8301,112.77,0,0,0,0,0,0,52.262,-0.11832,9.8126,48.484,0,0,0,875.23,93.089,0.058666,5.4113e-4,NaN,45.154,NaN,0.03028,502459,107.34,0.049325,0.58319,0.31989,0.32413,0.13894,0.12012,NaN,NaN,NaN,NaN,NaN,NaN,NaN,NaN,6.0967e-4,5.5,23.758,90,0,NaN,14.856,1010.6,340.3,0.01,0.0018711
0.08,0.28358,7.9585,115.58,7.9585,115.58,0,0,0,0,0,0,52.262,-0.11832,9.8126,44.169,0,0,0,874.55,92.406,0.058648,5.4106e-4,NaN,45.142,NaN,0.032604,541012,109.74,0.0708,0.58165,0.39605,0.32256,0.13895,0.12014,NaN,NaN,NaN,NaN,NaN,NaN,NaN,NaN,7.1039e-4,5.5,23.758,90,0,NaN,14.855,1010.6,340.3,0.01,0.0021311
0.09,0.36894,9.115,118.39,9.115,118.39,0,0,0,0,0,0,52.262,-0.11832,9.8126,40.358,0,0,0,873.87,91.723,0.058631,5.4099e-4,NaN,45.13,NaN,0.03515,583261,112.13,0.096591,0.58019,0.46488,0.32107,0.13896,0.12016,NaN,NaN,NaN,NaN,NaN,NaN,NaN,NaN,8.1363e-4,5.5,23.758,90,0,NaN,14.855,1010.6,340.3,0.01,0.0023057
0.1,0.46601,10.3,121.2,10.3,121.2,0,0,0,0,0,0,52.262,-0.11832,9.8126,36.999,0,0,0,873.18,91.04,0.058614,5.4091e-4,NaN,45.119,NaN,0.037897,628829,114.53,0.12685,0.57945,0.52525,0.32029,0.13897,0.12019,NaN,NaN,NaN,NaN,NaN,NaN,NaN,NaN,9.1937e-4,5.5,23.758,90,0,NaN,14.854,1010.6,340.3,0.01,0.0028368
0.11,0.57507,11.512,124.01,11.512,124.01,0,0,0,0,0,0,52.262,-0.11832,9.8126,34.163,0,0,0,872.5,90.356,0.058596,5.4084e-4,NaN,45.107,NaN,0.040885,678401,116.92,0.16139,0.57872,0.57414,0.31952,0.13898,0.12022,NaN,NaN,NaN,NaN,NaN,NaN,NaN,NaN,0.0010276,5.5,23.758,90,0,NaN,14.853,1010.6,340.3,0.01,0.0029792
0.12,0.6964,12.753,126.82,12.753,126.82,0,0,0,0,0,0,52.262,-0.11832,9.8126,31.662,0,0,0,871.82,89.673,0.058579,5.4077e-4,NaN,45.095,NaN,0.044029,730569,119.32,0.20035,0.57803,0.6146,0.31878,0.139,0.12025,NaN,NaN,NaN,NaN,NaN,NaN,NaN,NaN,0.0011384,5.5,23.758,90,0,NaN,14.852,1010.6,340.3,0.01,0.0031064
0.13,0.83027,14.022,128.99,14.022,128.99,0,0,0,0,0,0,52.262,-0.11832,9.8126,29.448,0,0,0,871.13,88.99,0.058561,5.407e-4,NaN,45.083,NaN,0.047318,785133,121.16,0.24379,0.57739,0.64751,0.31808,0.13902,0.12029,NaN,NaN,NaN,NaN,NaN,NaN,NaN,NaN,0.0012516,5.5,23.758,90,0,NaN,14.852,1010.6,340.3,0.01,0.00322
0.14,0.97694,15.312,127.36,15.312,127.36,0,0,0,0,0,0,52.262,-0.11832,9.8126,27.492,0,0,0,870.45,88.306,0.058544,5.4063e-4,NaN,45.071,NaN,0.050725,841653,119.69,0.2915,0.57678,0.67373,0.31741,0.13903,0.12033,NaN,NaN,NaN,NaN,NaN,NaN,NaN,NaN,0.0013668,5.5,23.758,90,0,NaN,14.851,1010.6,340.3,0.01,0.003332
0.15,1.1364,16.587,125.09,16.587,125.09,0,0,0,0,0,0,52.262,-0.11832,9.8126,25.805,0,0,0,869.76,87.62,0.058526,5.4055e-4,NaN,45.06,NaN,0.05414,898312,117.68,0.34194,0.57624,0.69375,0.3168,0.13905,0.12038,NaN,NaN,NaN,NaN,NaN,NaN,NaN,NaN,0.0014806,5.5,23.758,90,0,NaN,14.85,1010.5,340.3,0.01,0.0034505
0.16,1.3086,17.838,122.82,17.838,122.82,0,0,0,0,0,0,52.262,-0.11832,9.8126,24.211,0,0,0,869.08,86.934,0.058508,5.4048e-4,NaN,45.048,NaN,0.057475,953622,115.66,0.39449,0.57575,0.71021,0.31625,0.13908,0.12043,NaN,NaN,NaN,NaN,NaN,NaN,NaN,NaN,0.0015923,5.5,23.758,90,0,NaN,14.848,1010.5,340.3,0.01,0.0035612
0.17,1.4931,19.067,120.53,19.067,120.53,0,0,0,0,0,0,52.262,-0.11832,9.8126,22.818,0,0,0,868.39,86.247,0.05849,5.4041e-4,NaN,45.036,NaN,0.060787,1008562,113.64,0.4488,0.57531,0.72235,0.31574,0.1391,0.12048,NaN,NaN,NaN,NaN,NaN,NaN,NaN,NaN,0.001702,5.5,23.758,90,0,NaN,14.847,1010.5,340.3,0.01,0.0036765
0.18,1.6898,20.273,118.25,20.273,118.25,0,0,0,0,0,0,52.262,-0.11832,9.8126,21.591,0,0,0,867.71,85.561,0.058473,5.4034e-4,NaN,45.024,NaN,0.064069,1062999,111.62,0.50461,0.57492,0.73111,0.31526,0.13912,0.12053,NaN,NaN,NaN,NaN,NaN,NaN,NaN,NaN,0.0018096,5.5,23.758,90,0,NaN,14.846,1010.5,340.3,0.01,0.0037873
0.19,1.8984,21.456,115.96,21.456,115.96,0,0,0,0,0,0,52.262,-0.11832,9.8126,20.504,0,0,0,867.02,84.874,0.058455,5.4027e-4,NaN,45.012,NaN,0.067315,1116829,109.61,0.56169,0.57456,0.73725,0.31482,0.13914,0.12059,NaN,NaN,NaN,NaN,NaN,NaN,NaN,NaN,0.0019152,5.5,23.758,90,0,NaN,14.845,1010.4,340.29,0.01,0.0039002
0.2,2.1188,22.616,113.66,22.616,113.66,0,0,0,0,0,0,52.262,-0.11832,9.8126,19.535,0,0,0,866.33,84.188,0.058437,5.4019e-4,NaN,45,NaN,0.070519,1.17e6,107.59,0.61984,0.57423,0.74134,0.31441,0.13917,0.12065,NaN,NaN,NaN,NaN,NaN,NaN,NaN,NaN,0.0020187,5.5,23.758,90,0,NaN,14.843,1010.4,340.29,0.01,0.0040304
0.21,2.3506,23.753,111.36,23.753,111.36,0,0,0,0,0,0,52.262,-0.11832,9.8126,18.601,0,0,0,865.65,83.502,0.058419,5.4012e-4,NaN,44.988,NaN,0.073648,1221859,105.57,0.6785,0.57394,0.74403,0.31404,0.13919,0.12071,NaN,NaN,NaN,NaN,NaN,NaN,NaN,NaN,0.0021202,5.5,23.758,90,0,NaN,14.842,1010.4,340.29,0.01,0.0041401
0.22,2.5937,24.867,109.56,24.867,109.56,0,0,0,0,0,0,52.262,-0.11832,9.8126,17.758,0,0,0,864.96,82.815,0.058402,5.4005e-4,NaN,44.976,NaN,0.076731,1272978,103.99,0.73773,0.57367,0.74529,0.31368,0.13922,0.12077,NaN,NaN,NaN,NaN,NaN,NaN,NaN,NaN,0.0022197,5.5,23.758,90,0,NaN,14.84,1010.4,340.29,0.01,0.0042511
0.23,2.8479,25.963,108.26,25.963,108.26,0,0,0,0,0,0,52.262,-0.11832,9.8126,16.991,0,0,0,864.31,82.168,0.058385,5.3998e-4,NaN,44.964,NaN,0.079778,1323506,102.85,0.79763,0.57342,0.74545,0.31335,0.13925,0.12083,NaN,NaN,NaN,NaN,NaN,NaN,NaN,NaN,0.0023175,5.5,23.758,90,0,NaN,14.838,1010.3,340.29,0.01,0.0043872
# Event LAUNCHROD occurred at t=0.24 seconds
0.24,3.1129,27.046,106.95,27.046,107.07,0,0,0,0,0,5.1064,52.262,-0.11832,9.8126,16.289,0,0,0,863.71,81.561,0.058369,5.3992e-4,48.827,44.954,0.70421,0.082802,1373639,101.42,0.85787,0.5732,0.74428,0.31303,0.13927,0.12089,3.8247,2.6931,-8.1799e-5,0,0,0,0,0,0.0024142,5.5,23.758,90,0,NaN,14.837,1010.3,340.29,0.015,0.0045921
0.255,3.5306,28.646,104.63,28.646,104.76,-5.7648e-4,0,5.7648e-4,-180,0.07697,5.1498,52.262,-0.11832,9.8126,15.215,0,2.6103,2.9597e-4,862.95,80.803,0.058349,5.3984e-4,49.039,44.94,0.74525,0.087249,1447349,99.293,0.94628,0.5729,0.73948,0.31259,0.13932,0.12099,3.4971,2.606,-4.3959e-4,0,0,0,0,3.0432e-4,0.0025571,5.5,23.758,89.981,-0.0064497,NaN,14.834,1010.3,340.29,0.02221,0.004755
0.27721,4.1926,30.963,101.22,30.963,101.34,-0.0035554,-8.7837e-9,0.0035554,-180,0.19099,5.0794,52.262,-0.11832,9.8126,13.865,0,6.8201,4.4958e-4,861.82,79.673,0.05832,5.3972e-4,49.324,44.92,0.80074,0.093771,1555451,96.87,1.0773,0.57251,0.72889,0.31199,0.13938,0.12114,3.0995,2.4801,2.8372e-4,0,0,0,0,0.0017985,0.0027639,5.5,23.758,89.877,-0.0049908,NaN,14.83,1010.2,340.29,0.020195,0.0049101
0.2974,4.8385,33.01,99.312,33.012,99.428,-0.0084328,-3.5017e-8,0.0084328,-180,0.29107,4.8014,52.262,-0.11832,9.8126,12.722,0,10.978,7.7947e-4,860.53,78.386,0.058286,5.3958e-4,49.583,44.898,0.85184,0.09957,1651566,95.114,1.1944,0.57222,0.71675,0.31149,0.13945,0.12129,2.7755,2.3604,4.3204e-4,0,0,0,0,0.0041329,0.0029469,5.5,23.758,89.697,-0.0041845,NaN,14.826,1010.1,340.28,0.01881,0.0050606
0.31621,5.477,34.88,98.199,34.882,98.297,-0.014736,-8.9979e-8,0.014736,-180,0.37781,4.4018,52.262,-0.11832,9.8126,11.798,0,15.106,5.7741e-4,859.39,77.245,0.058256,5.3946e-4,49.804,44.877,0.89574,0.10493,1740389,94.117,1.305,0.572,0.70523,0.31106,0.13951,0.12143,2.522,2.2519,-6.3496e-5,0,0,0,0,0.0070462,0.003114,5.5,23.758,89.453,-0.0035629,NaN,14.821,1010,340.28,0.017745,0.0052111
0.33396,6.1115,36.624,97.139,36.627,97.215,-0.022106,-1.8171e-7,0.022106,-180,0.45118,3.8475,52.262,-0.11832,9.8126,10.948,0,19.205,2.1875e-4,858.37,76.222,0.058229,5.3936e-4,50.018,44.859,0.93796,0.10995,1823600,93.175,1.4093,0.57181,0.69361,0.31067,0.13957,0.12157,2.2955,2.1429,7.0247e-5,0,0,0,0,0.010372,0.0032699,5.5,23.758,89.148,-0.0027894,NaN,14.817,1010,340.28,0.016976,0.005382
0.35094,6.7472,38.275,96.115,38.278,96.167,-0.030287,-3.1146e-7,0.030287,-180,0.51057,3.136,52.262,-0.11832,9.8126,10.125,0,23.275,1.1034e-4,857.4,75.253,0.058204,5.3925e-4,50.235,44.842,0.9805,0.11472,1902537,92.267,1.5076,0.57167,0.68171,0.31033,0.13963,0.12171,2.0829,2.0279,1.7604e-4,0,0,0,0,0.013996,0.0034173,5.5,23.758,88.788,-0.0020578,NaN,14.813,1009.9,340.28,0.016473,0.0055445
0.36741,7.3907,39.859,95.112,39.863,95.138,-0.039082,-4.8013e-7,0.039082,-180,0.5547,2.2198,52.262,-0.11832,9.8126,9.2439,0,27.307,-5.7368e-4,856.47,74.321,0.058179,5.3916e-4,50.478,44.825,1.0278,0.11928,1978041,91.377,1.5982,0.57155,0.66851,0.31001,0.13969,0.12185,1.862,1.896,-2.0726e-4,0,0,0,0,0.01782,0.0035589,5.5,23.758,88.371,-0.0013624,NaN,14.809,1009.8,340.27,0.016292,0.0056949
0.3837,8.0528,41.41,94.1,41.414,94.107,-0.048367,-6.8624e-7,0.048367,-180,0.58207,1.1464,52.262,-0.11832,9.8126,8.3661,0,31.31,-9.2642e-4,855.55,73.407,0.058155,5.3906e-4,50.733,44.809,1.0772,0.12376,2052176,90.491,1.6859,0.57145,0.65514,0.30971,0.13975,0.12199,1.6493,1.7546,-1.4373e-4,0,0,0,0,0.021763,0.0036973,5.5,23.758,87.894,-7.3014e-4,NaN,14.805,1009.7,340.27,0.016349,0.0058441
0.40005,8.7424,42.949,93.062,42.953,93.062,-0.057981,-9.2556e-7,0.057981,-180,0.59052,0.095659,52.262,-0.11832,9.8126,7.4769,0,35.28,-0.0011821,854.64,72.497,0.058131,5.3897e-4,51.005,44.792,1.1296,0.12822,2126011,89.594,1.7723,0.57137,0.64168,0.30942,0.13981,0.12214,1.4413,1.6021,-9.9167e-5,0,0,0,0,0.025744,0.0038347,5.5,23.758,87.349,-2.1881e-4,NaN,14.8,1009.6,340.27,0.016676,0.0060094
0.41673,9.4715,44.501,91.973,44.505,91.984,-0.067752,-1.1914e-6,0.067752,-180,0.57736,1.4537,52.262,-0.11832,9.8126,6.6521,0,39.235,-0.0010799,853.72,71.576,0.058106,5.3887e-4,51.27,44.776,1.1808,0.13277,2201345,88.678,1.8641,0.57131,0.6295,0.30914,0.13988,0.12229,1.2553,1.4527,4.3629e-4,0,0,0,0,0.029695,0.0039732,5.5,23.758,86.728,1.3014e-4,NaN,14.795,1009.6,340.26,0.017145,0.006193
0.43387,10.248,46.078,91.048,46.081,91.098,-0.077359,-1.4743e-6,0.077359,-180,0.53864,3.0335,52.262,-0.11832,9.8126,5.785,0,43.145,-0.0016839,852.78,70.64,0.058081,5.3877e-4,51.563,44.759,1.2371,0.13741,2278111,87.926,1.9578,0.57126,0.61729,0.30886,0.13995,0.12245,1.0669,1.2866,-7.2617e-5,0,0,0,0,0.033524,0.0041138,5.5,23.758,86.021,4.1292e-4,NaN,14.79,1009.5,340.26,0.018068,0.0064116
0.45194,11.095,47.722,90.177,47.725,90.309,-0.086494,-1.7645e-6,0.086494,-180,0.4668,4.887,52.262,-0.11832,9.8126,4.8523,0,46.988,-0.0018791,851.88,69.736,0.058057,5.3867e-4,51.896,44.743,1.3006,0.14226,2358436,87.257,2.0571,0.57123,0.60515,0.30858,0.14002,0.12263,0.87237,1.0973,5.0562e-5,0,0,0,0,0.037095,0.0042604,5.5,23.758,85.207,6.3219e-4,NaN,14.785,1009.4,340.26,0.019757,0.0066735
0.4717,12.056,49.502,89.141,49.504,89.423,-0.094617,-2.0476e-6,0.094617,-180,0.34792,7.0972,52.262,-0.11832,9.8126,3.8181,0,50.723,-0.0019899,850.97,68.83,0.058033,5.3858e-4,52.288,44.726,1.3748,0.14754,2445737,86.5,2.1689,0.57122,0.59327,0.30828,0.14011,0.12283,0.66675,0.87614,1.5432e-4,0,0,0,0,0.040191,0.004419,5.5,23.758,84.241,7.4771e-4,NaN,14.779,1009.3,340.25,0.022998,0.0068925
0.49469,13.218,51.549,87.809,51.549,88.362,-0.10049,-2.2964e-6,0.10049,-180,0.15193,9.8661,52.262,-0.11832,9.8126,2.6027,0,54.24,-0.0021488,849.95,67.805,0.058005,5.3847e-4,52.781,44.708,1.4679,0.15364,2546566,85.546,2.3071,0.57123,0.58205,0.30795,0.14021,0.12307,0.4387,0.60155,9.8655e-5,0,0,0,0,0.042383,0.0046014,5.5,23.758,83.032,7.2329e-4,NaN,14.771,1009.1,340.25,0.030879,0.0070495
0.52557,14.851,54.248,85.71,54.248,86.867,-0.099787,-2.4514e-6,0.099787,-180,0.22042,14.134,52.262,-0.11832,9.8126,0.55849,0,56.746,-0.0084595,848.66,66.515,0.057971,5.3834e-4,53.701,44.684,1.6394,0.16154,2677087,84.18,2.5051,0.57128,0.57182,0.30754,0.14035,0.12339,0.088399,0.10305,-1.0038e-4,0,0,0,0,0.041966,0.0048424,5.5,23.758,81.31,5.5196e-4,NaN,14.76,1008.9,340.24,0.046319,0.0072055
0.57189,17.455,58.176,82.034,58.186,84.497,-0.071966,-2.2737e-6,0.071966,-180,1.0302,20.253,52.262,-0.11832,9.8126,1.9405,0,-53.6,-0.0011887,846.81,64.665,0.057921,5.3814e-4,53.074,44.65,1.5316,0.17328,2871091,82.867,2.911,0.57143,0.57762,0.30695,0.14057,0.1239,0.32081,0.52344,-1.4545e-4,0,0,0,0,-0.03254,0.0051952,5.5,23.758,78.725,2.7992e-4,NaN,14.744,1008.6,340.23,0.027871,0.0075136
0.59976,19.109,60.46,80.314,60.483,83.718,-0.034891,-1.8627e-6,0.034891,-180,1.647,23.63,52.262,-0.11832,9.8126,2.9437,-5.1889e-7,-48.443,-0.0014337,845.03,62.887,0.057873,5.3795e-4,52.653,44.618,1.4609,0.18031,2987141,82.059,3.1927,0.57156,0.5852,0.30662,0.14071,0.12423,0.50168,0.75718,7.3907e-5,0,0,0,0,-0.024549,0.0054022,5.5,23.758,77.297,2.116e-4,NaN,14.733,1008.4,340.23,0.017783,0.0077479
0.61754,20.196,61.886,79.064,61.921,83.2,-0.0017312,-1.4883e-6,0.0017312,-179.95,2.0897,25.907,52.262,-0.11832,9.8126,3.7315,-3.4765e-7,-43.843,2.3382e-4,843.94,61.793,0.057843,5.3784e-4,52.339,44.598,1.4076,0.18459,3057635,81.501,3.3889,0.57165,0.59281,0.30642,0.1408,0.12443,0.65081,0.93516,-4.0456e-4,0,0,0,0,-0.019188,0.0055325,5.5,23.758,76.475,1.6456e-4,NaN,14.726,1008.3,340.22,0.013734,0.0079006
0.63128,21.054,62.969,78.011,63.017,82.718,0.02947,-1.1278e-6,0.02947,-0.0021928,2.4578,27.506,52.262,-0.11832,9.8126,4.2559,-4.4752e-7,-39.508,0.0012714,843.18,61.038,0.057823,5.3776e-4,52.14,44.584,1.3738,0.18785,3111409,81.049,3.5435,0.57172,0.59859,0.30627,0.14087,0.12459,0.75356,1.05,-4.9352e-4,0,0,0,0,-0.015045,0.0056322,5.5,23.758,75.902,2.1157e-4,NaN,14.72,1008.2,340.22,0.011808,0.0080216
0.64309,21.803,63.888,77.086,63.949,82.27,0.060442,-7.5815e-7,0.060442,-7.1869e-4,2.7909,28.742,52.262,-0.11832,9.8126,4.641,-4.8022e-7,-35.279,7.6522e-4,842.57,60.426,0.057806,5.377e-4,51.997,44.572,1.3499,0.19062,3157179,80.652,3.6766,0.57179,0.60317,0.30614,0.14093,0.12472,0.83079,1.1336,-2.499e-4,0,0,0,0,-0.01165,0.0057173,5.5,23.758,75.46,2.653e-4,NaN,14.715,1008.1,340.22,0.010619,0.0081308
0.65371,22.486,64.705,76.277,64.779,81.852,0.091719,-3.6937e-7,0.091719,-2.3074e-4,3.1021,29.691,52.262,-0.11832,9.8126,4.9059,-4.9045e-7,-31.114,0.0013882,842.03,59.889,0.057791,5.3764e-4,51.901,44.563,1.3343,0.19311,3198235,80.289,3.7937,0.57186,0.60648,0.30603,0.14098,0.12485,0.8848,1.1893,-4.5904e-4,0,0,0,0,-0.0088294,0.0057934,5.5,23.758,75.107,3.1934e-4,NaN,14.711,1008,340.21,0.0098606,0.0082551
0.66357,23.127,65.455,75.568,65.544,81.449,0.12376,4.7352e-8,0.12376,2.1921e-5,3.399,30.388,52.262,-0.11832,9.8126,5.0595,-5.3485e-7,-27.005,0.0014455,841.54,59.398,0.057778,5.3759e-4,51.847,44.553,1.3261,0.19544,3236521,79.949,3.898,0.57193,0.60847,0.30593,0.14103,0.12497,0.91647,1.2215,-4.333e-4,0,0,0,0,-0.0064945,0.0058637,5.5,23.758,74.82,3.842e-4,NaN,14.707,1008,340.21,0.009372,0.0083632
0.67294,23.744,66.162,74.922,66.265,81.057,0.15696,5.0055e-7,0.15696,1.8271e-4,3.687,30.935,52.262,-0.11831,9.8126,5.1641,-5.244e-7,-22.918,0.0025138,841.08,58.937,0.057765,5.3754e-4,51.811,44.545,1.3211,0.19763,3272662,79.624,3.9948,0.57199,0.60987,0.30583,0.14108,0.12508,0.93819,1.2442,4.0042e-4,0,0,0,0,-0.004574,0.0059303,5.5,23.758,74.586,4.6638e-4,NaN,14.703,1007.9,340.21,0.0089971,0.00847
0.68193,24.342,66.836,74.334,66.953,80.674,0.1914,9.9597e-7,0.1914,2.9815e-4,3.9677,31.349,52.262,-0.11831,9.8126,5.2261,-4.4041e-7,-18.849,0.0019908,840.64,58.497,0.057753,5.3749e-4,51.79,44.537,1.3188,0.19972,3307134,79.31,4.0854,0.57205,0.61074,0.30574,0.14113,0.12519,0.95114,1.2577,-1.9968e-4,0,0,0,0,-0.0030297,0.0059939,5.5,23.758,74.398,5.4217e-4,NaN,14.699,1007.8,340.21,0.0087139,0.0085766
0.69065,24.928,67.483,73.798,67.616,80.295,0.22717,1.5396e-6,0.22717,3.8831e-4,4.2427,31.641,52.262,-0.11831,9.8126,5.2499,-5.2885e-7,-14.796,0.001582,840.22,58.073,0.057742,5.3745e-4,51.783,44.529,1.3189,0.20174,3340323,79.006,4.1705,0.57212,0.61111,0.30565,0.14117,0.12529,0.95618,1.2627,-1.7794e-4,0,0,0,0,-0.0018298,0.0060554,5.5,23.758,74.252,6.1045e-4,NaN,14.695,1007.7,340.2,0.0085055,0.0086882
0.69915,25.504,68.11,73.31,68.259,79.918,0.2644,2.1366e-6,0.2644,4.63e-4,4.5132,31.82,52.262,-0.11831,9.8126,5.2388,-4.4038e-7,-10.755,0.0014725,839.8,57.66,0.05773,5.3741e-4,51.788,44.521,1.3212,0.20369,3372535,78.707,4.2509,0.57218,0.61103,0.30557,0.14122,0.12539,0.95393,1.2617,-8.023e-5,0,0,0,0,-9.4838e-4,0.0061152,5.5,23.758,74.143,6.63e-4,NaN,14.691,1007.7,340.2,0.0083486,0.0087964
0.7075,26.075,68.722,72.895,68.888,79.532,0.30319,2.7917e-6,0.30319,5.2756e-4,4.7793,31.806,52.262,-0.11831,9.8126,5.1432,-2.9511e-7,-6.7443,0.0012957,839.4,57.256,0.057719,5.3736e-4,51.823,44.514,1.329,0.20564,3404575,78.412,4.324,0.57224,0.60988,0.30548,0.14126,0.1255,0.93413,1.2418,4.6139e-4,0,0,0,0,-3.659e-4,0.0061737,5.5,23.758,74.07,7.1184e-4,NaN,14.688,1007.6,340.2,0.0083218,0.0089102
0.71582,26.65,69.328,72.518,69.511,79.135,0.34406,3.5174e-6,0.34406,5.8574e-4,5.044,31.678,52.262,-0.11831,9.8126,5.0119,0,-2.747,8.475e-4,839,56.857,0.057708,5.3732e-4,51.872,44.506,1.3392,0.20757,3436441,78.117,4.3939,0.57231,0.60828,0.3054,0.14131,0.1256,0.90707,1.2146,3.3416e-4,0,0,0,0,-5.9578e-5,0.006232,5.5,23.758,74.03,7.4606e-4,NaN,14.684,1007.5,340.2,0.0083493,0.0090255
0.72417,27.231,69.934,72.177,70.135,78.729,0.38728,4.322e-6,0.38728,6.3941e-4,5.308,31.444,52.262,-0.11831,9.8126,4.8507,0,1.2387,7.1986e-4,838.6,56.457,0.057697,5.3728e-4,51.931,44.499,1.3514,0.20951,3468281,77.82,4.4616,0.57238,0.60634,0.30532,0.14135,0.12571,0.87405,1.181,-4.3397e-4,0,0,0,0,1.1892e-5,0.0062903,5.5,23.758,74.024,7.668e-4,NaN,14.68,1007.5,340.19,0.0084276,0.0091313
0.7326,27.823,70.542,71.868,70.762,78.309,0.43313,5.215e-6,0.43313,6.8986e-4,5.5721,31.102,52.262,-0.11831,9.8126,4.659,0,5.2106,6.2385e-4,838.2,56.055,0.057686,5.3724e-4,52.003,44.491,1.3657,0.21145,3500292,77.52,4.5275,0.57245,0.60407,0.30524,0.1414,0.12581,0.83511,1.1402,1.3884e-4,0,0,0,0,2.0657e-4,0.006349,5.5,23.758,74.051,7.9261e-4,NaN,14.676,1007.4,340.19,0.0085683,0.0092368
0.74117,28.43,71.158,71.59,71.397,77.874,0.48201,6.2086e-6,0.48201,7.3801e-4,5.8372,30.648,52.262,-0.11831,9.8126,4.4354,0,9.1669,-2.0647e-4,837.79,55.648,0.057675,5.3719e-4,52.087,44.484,1.3825,0.21342,3532710,77.212,4.5922,0.57252,0.6015,0.30515,0.14144,0.12592,0.79014,1.0914,4.1891e-4,0,0,0,0,6.276e-4,0.0064086,5.5,23.758,74.113,7.9677e-4,NaN,14.672,1007.3,340.19,0.0087862,0.0093426
0.74996,29.058,71.788,71.339,72.047,77.419,0.53447,7.3188e-6,0.53447,7.8458e-4,6.1045,30.073,52.262,-0.11831,9.8125,4.1776,0,13.104,-5.1783e-4,837.38,55.232,0.057664,5.3715e-4,52.186,44.476,1.4018,0.21543,3565824,76.896,4.6565,0.5726,0.59862,0.30507,0.14149,0.12603,0.73888,1.0345,-1.1904e-4,0,0,0,0,0.0012586,0.0064695,5.5,23.758,74.211,7.7761e-4,NaN,14.668,1007.3,340.19,0.0090961,0.0094482
0.75905,29.714,72.437,71.065,72.718,76.953,0.59124,8.5662e-6,0.59124,8.3014e-4,6.3761,29.522,52.262,-0.11831,9.8125,3.9726,0,17.054,-6.9763e-4,836.95,54.804,0.057652,5.3711e-4,52.265,44.468,1.4177,0.21744,3598780,76.569,4.7259,0.57268,0.59644,0.30499,0.14154,0.12615,0.69859,0.98792,5.1093e-5,0,0,0,0,0.0020928,0.0065325,5.5,23.758,74.348,7.5188e-4,NaN,14.664,1007.2,340.19,0.0093486,0.0095551
0.7684,30.394,73.103,70.82,73.404,76.468,0.65213,9.951e-6,0.65213,8.7429e-4,6.6496,28.84,52.262,-0.11831,9.8125,3.7306,0,20.984,-7.9373e-4,836.51,54.362,0.05764,5.3706e-4,52.361,44.46,1.4366,0.21949,3632476,76.232,4.7949,0.57276,0.59395,0.3049,0.14159,0.12626,0.65157,0.9332,-1.5546e-4,0,0,0,0,0.0031096,0.006597,5.5,23.758,74.526,7.2223e-4,NaN,14.659,1007.1,340.18,0.0097116,0.0096864
0.77811,31.108,73.791,70.6,74.116,75.954,0.71806,1.1499e-5,0.71806,9.1751e-4,6.9263,28.011,52.262,-0.11831,9.8125,3.4476,0,24.884,-5.447e-4,836.05,53.905,0.057627,5.3701e-4,52.474,44.451,1.4587,0.2216,3667302,75.879,4.8647,0.57284,0.59118,0.30482,0.14164,0.12638,0.5973,0.86734,-2.7588e-4,0,0,0,0,0.0042898,0.0066638,5.5,23.758,74.749,6.8848e-4,NaN,14.655,1007,340.18,0.010249,0.0097946
0.78836,31.868,74.516,70.397,74.864,75.402,0.7905,1.3251e-5,0.7905,9.6047e-4,7.209,27.012,52.262,-0.11831,9.8125,3.1169,0,28.745,3.0175e-4,835.57,53.427,0.057614,5.3696e-4,52.608,44.442,1.4847,0.22383,3703862,75.502,4.937,0.57294,0.58815,0.30472,0.1417,0.12651,0.53487,0.78874,3.5504e-4,0,0,0,0,0.0056111,0.0067341,5.5,23.758,75.024,6.7749e-4,NaN,14.65,1006.9,340.18,0.011046,0.0099087
0.79941,32.695,75.295,70.204,75.668,74.795,0.87175,1.5277e-5,0.87175,0.0010041,7.5015,25.802,52.262,-0.1183,9.8125,2.7278,-3.6471e-7,32.551,-2.9902e-4,835.06,52.917,0.0576,5.3691e-4,52.77,44.432,1.5158,0.22621,3743044,75.089,5.0143,0.57304,0.5849,0.30463,0.14176,0.12665,0.46281,0.69447,-3.1813e-4,0,0,0,0,0.0070447,0.0068095,5.5,23.758,75.363,6.7689e-4,NaN,14.644,1006.8,340.17,0.01228,0.010015
0.81169,33.625,76.159,70.022,76.559,74.103,0.96579,1.7695e-5,0.96579,0.0010498,7.8098,24.253,52.262,-0.1183,9.8125,2.227,-4.4201e-7,36.246,2.8825e-4,834.5,52.358,0.057584,5.3685e-4,52.983,44.422,1.5566,0.22888,3786824,74.614,5.1005,0.57316,0.58124,0.30452,0.14183,0.12681,0.37227,0.57113,-3.9649e-4,0,0,0,0,0.0085326,0.0068929,5.5,23.758,75.786,6.9698e-4,NaN,14.638,1006.7,340.17,0.014584,0.010121
0.82627,34.743,77.183,69.797,77.612,73.259,1.0822,2.0801e-5,1.0822,0.0011013,8.1502,22.254,52.262,-0.1183,9.8125,1.5974,-3.466e-7,39.741,-0.0010644,833.86,51.714,0.057566,5.3678e-4,53.261,44.41,1.6094,0.23202,3838473,74.007,5.2078,0.5733,0.57757,0.30439,0.14191,0.127,0.26201,0.41202,-3.2809e-4,0,0,0,0,0.0099817,0.0069914,5.5,23.758,76.341,7.0273e-4,NaN,14.631,1006.6,340.17,0.019669,0.010226
0.84594,36.275,78.56,69.421,79.026,72.075,1.2466,2.539e-5,1.2466,0.0011669,8.5617,19.38,52.262,-0.1183,9.8125,0.71902,0,42.683,-2.7912e-4,833.04,50.893,0.057544,5.3669e-4,53.668,44.394,1.6862,0.23622,3907441,73.137,5.3675,0.5735,0.5744,0.30423,0.14202,0.12725,0.11477,0.18241,4.9024e-4,0,0,0,0,0.011109,0.0071228,5.5,23.758,77.156,7.5595e-4,NaN,14.621,1006.4,340.16,0.029503,0.010333
0.87544,38.623,80.615,68.664,81.124,70.257,1.5071,3.3133e-5,1.5071,0.0012597,9.0709,14.875,52.262,-0.11829,9.8125,0.61722,0,-42.675,-0.0032437,831.86,49.715,0.057511,5.3657e-4,53.721,44.372,1.6999,0.24246,4009879,71.874,5.6541,0.57381,0.57448,0.30398,0.14219,0.12764,0.098234,0.17725,-2.6353e-4,0,0,0,0,-0.010541,0.0073165,5.5,23.758,78.428,6.0904e-4,NaN,14.606,1006.1,340.15,0.041844,0.010439
0.91729,42.056,83.495,67.183,84.042,67.803,1.8979,4.5673e-5,1.8979,0.0013789,9.5715,9.1476,52.262,-0.11829,9.8125,2.0275,-9.9454e-7,-33.552,-0.0044125,830.15,48.005,0.057463,5.3639e-4,53.085,44.339,1.5901,0.25093,4148707,70.908,6.1227,0.57426,0.58103,0.30365,0.14242,0.12819,0.33727,0.54199,-1.2048e-5,0,0,0,0,-0.0060838,0.0075826,5.5,23.758,80.054,5.7474e-4,NaN,14.584,1005.7,340.14,0.012771,0.01055
0.93006,43.128,84.361,67.382,84.915,67.853,2.0208,4.9852e-5,2.0208,0.0014134,9.6817,7.9765,52.262,-0.11829,9.8125,2.2678,-1.029e-6,-29.267,-0.0035209,828.84,46.697,0.057427,5.3625e-4,52.983,44.314,1.5761,0.25339,4188902,70.482,6.2611,0.57439,0.58278,0.30355,0.14249,0.12835,0.38004,0.60345,-2.2711e-4,0,0,0,0,-0.0045398,0.0076615,5.5,23.758,80.456,8.0363e-4,NaN,14.577,1005.6,340.13,0.011243,0.010657
0.9413,44.081,85.119,66.967,85.678,67.334,2.1302,5.3678e-5,2.1302,0.0014438,9.7663,7.0197,52.262,-0.11829,9.8125,2.4267,-8.8225e-7,-25.091,-0.0033481,828.27,46.121,0.05741,5.3619e-4,52.917,44.303,1.5661,0.25553,4223995,70.1,6.3807,0.57452,0.58405,0.30347,0.14256,0.12849,0.40865,0.64279,-4.7548e-4,0,0,0,0,-0.003281,0.0077303,5.5,23.758,80.762,9.9764e-4,NaN,14.57,1005.5,340.13,0.010377,0.010763
0.95168,44.968,85.815,66.555,86.376,66.845,2.2319,5.7342e-5,2.2319,0.0014721,9.8355,6.2202,52.262,-0.11828,9.8125,2.5568,-9.9153e-7,-20.964,-0.001992,827.75,45.603,0.057396,5.3614e-4,52.864,44.294,1.5582,0.25752,4256546,69.745,6.492,0.57463,0.58516,0.3034,0.14261,0.12862,0.4323,0.67584,3.6359e-4,0,0,0,0,-0.0022552,0.0077931,5.5,23.758,81.001,0.0011291,NaN,14.565,1005.4,340.13,0.0097163,0.01087
0.9614,45.805,86.462,66.195,87.025,66.404,2.3277,6.0894e-5,2.3277,0.0014989,9.8915,5.2662,52.262,-0.11828,9.8125,2.7775,-1.1762e-6,-16.76,-0.0023348,827.28,45.138,0.057383,5.3609e-4,52.773,44.285,1.5433,0.2595,4288933,69.433,6.6128,0.57474,0.58705,0.30332,0.14267,0.12875,0.47274,0.73151,-1.1479e-4,0,0,0,0,-0.0014196,0.0078514,5.5,23.758,81.184,0.0012636,NaN,14.559,1005.3,340.12,0.0088394,0.010976
0.97024,46.572,87.047,65.858,87.612,66.014,2.4153,6.4232e-5,2.4153,0.0015237,9.935,4.5364,52.262,-0.11828,9.8125,2.9365,-1.1629e-6,-12.619,-0.0026741,826.91,44.77,0.057372,5.3605e-4,52.709,44.278,1.5329,0.26129,4318164,69.153,6.7202,0.57485,0.58851,0.30325,0.14272,0.12888,0.5022,0.77059,3.7558e-4,0,0,0,0,-7.9385e-4,0.0079039,5.5,23.758,81.315,0.001405,NaN,14.554,1005.2,340.12,0.0082761,0.011097
0.97851,47.294,87.592,65.517,88.158,65.638,2.4977,6.7452e-5,2.4977,0.0015473,9.9704,3.9826,52.262,-0.11828,9.8125,3.0478,-1.3503e-6,-8.5159,-0.0031068,826.62,44.476,0.057364,5.3602e-4,52.664,44.272,1.5259,0.26295,4345337,68.888,6.8179,0.57495,0.58959,0.30319,0.14277,0.12899,0.523,0.79828,1.3451e-4,0,0,0,0,-3.5696e-4,0.0079527,5.5,23.758,81.402,0.0015802,NaN,14.55,1005.1,340.12,0.0078879,0.011216
0.9864,47.987,88.109,65.178,88.674,65.276,2.5765,7.0612e-5,2.5765,0.0015703,10,3.5804,52.262,-0.11828,9.8125,3.1194,-1.531e-6,-4.4415,-0.0033172,826.34,44.199,0.057356,5.3599e-4,52.637,44.267,1.5218,0.26452,4371063,68.633,6.9078,0.57504,0.59034,0.30313,0.14282,0.1291,0.53645,0.81658,-1.7046e-4,0,0,0,0,-9.5949e-5,0.0079989,5.5,23.758,81.453,0.0017602,NaN,14.545,1005,340.11,0.0076193,0.011327
0.99402,48.66,88.605,64.837,89.171,64.921,2.6528,7.3753e-5,2.6528,0.0015929,10.027,3.3145,52.262,-0.11828,9.8125,3.1561,-1.5907e-6,-0.39043,-0.002286,826.08,43.933,0.057349,5.3596e-4,52.623,44.261,1.5203,0.26603,4395759,68.386,6.9915,0.57514,0.59077,0.30307,0.14286,0.1292,0.54338,0.82647,5.7364e-5,0,0,0,0,-7.3305e-7,0.0080431,5.5,23.758,81.472,0.0018978,NaN,14.541,1005,340.11,0.0074425,0.011441
1.0015,49.322,89.088,64.487,89.653,64.568,2.7275,7.6909e-5,2.7275,0.0016156,10.051,3.2298,52.262,-0.11828,9.8125,3.1414,-1.5903e-6,3.6345,-0.0021218,825.82,43.674,0.057342,5.3594e-4,52.63,44.256,1.5225,0.26748,4419427,68.143,7.0667,0.57522,0.59072,0.30302,0.14291,0.1293,0.54066,0.82322,-4.6163e-4,0,0,0,0,6.2841e-5,0.0080861,5.5,23.758,81.46,0.0020116,NaN,14.536,1004.9,340.11,0.0073908,0.01155
1.0089,49.982,89.564,64.109,90.129,64.204,2.8019,8.0131e-5,2.8019,0.0016386,10.076,3.485,52.262,-0.11828,9.8125,3.0184,-1.4559e-6,7.5843,-0.0020632,825.56,43.42,0.057334,5.3591e-4,52.681,44.252,1.5326,0.26883,4441534,67.897,7.1255,0.57531,0.5897,0.30296,0.14295,0.1294,0.51768,0.79347,-3.799e-4,0,0,0,0,2.7089e-4,0.0081286,5.5,23.758,81.418,0.0020866,NaN,14.532,1004.8,340.11,0.0075905,0.011656
1.0164,50.664,90.05,63.705,90.615,63.822,2.8785,8.3533e-5,2.8785,0.0016627,10.104,3.8631,52.262,-0.11827,9.8125,2.865,-1.3686e-6,11.511,-0.0016301,825.31,43.163,0.057327,5.3588e-4,52.745,44.247,1.5452,0.27022,4464127,67.643,7.1832,0.57539,0.58845,0.30291,0.14299,0.12949,0.48918,0.75515,1.5336e-5,0,0,0,0,6.1762e-4,0.008172,5.5,23.758,81.346,0.0021514,NaN,14.528,1004.7,340.1,0.0078939,0.011763
1.0243,51.376,90.553,63.269,91.118,63.42,2.9583,8.7175e-5,2.9583,0.0016884,10.137,4.3749,52.262,-0.11827,9.8125,2.6778,-1.4375e-6,15.413,-0.0016735,825.04,42.897,0.05732,5.3585e-4,52.824,44.242,1.5605,0.27165,4487507,67.377,7.2409,0.57549,0.58699,0.30286,0.14303,0.12959,0.45475,0.70891,-4.9253e-5,0,0,0,0,0.0010957,0.008217,5.5,23.758,81.239,0.0021977,NaN,14.523,1004.6,340.1,0.00832,0.011869
1.0327,52.132,91.079,62.792,91.645,62.994,3.0428,9.1128e-5,3.0428,0.0017159,10.176,5.0357,52.262,-0.11827,9.8125,2.4526,-1.4521e-6,19.275,-0.0019377,824.76,42.619,0.057312,5.3582e-4,52.92,44.236,1.5789,0.27315,4512023,67.094,7.2999,0.57558,0.58533,0.3028,0.14308,0.1297,0.41375,0.65146,1.5167e-4,0,0,0,0,0.0016948,0.0082642,5.5,23.758,81.095,0.0022436,NaN,14.518,1004.6,340.1,0.0089539,0.01198
1.0416,52.95,91.64,62.256,92.209,62.532,3.1342,9.5517e-5,3.1342,0.0017462,10.225,5.8717,52.262,-0.11827,9.8125,2.1813,-1.2023e-6,23.09,-0.0020624,824.47,42.322,0.057303,5.3579e-4,53.037,44.23,1.6012,0.27476,4538266,66.785,7.3621,0.57569,0.58349,0.30274,0.14313,0.12981,0.36503,0.58193,3.3899e-4,0,0,0,0,0.0024038,0.0083148,5.5,23.758,80.905,0.0022955,NaN,14.513,1004.5,340.09,0.0099063,0.012093
1.0515,53.861,92.256,61.636,92.828,62.02,3.2358,1.0054e-4,3.2358,0.0017803,10.288,6.8951,52.262,-0.11827,9.8125,1.8625,-1.5158e-6,26.829,-0.002948,824.14,41.999,0.057294,5.3576e-4,53.177,44.224,1.6279,0.27654,4567310,66.435,7.4326,0.5758,0.58157,0.30267,0.14319,0.12994,0.30873,0.49913,1.6378e-4,0,0,0,0,0.0032039,0.0083705,5.5,23.758,80.657,0.002343,NaN,14.507,1004.4,340.09,0.011401,0.012199
1.0629,54.917,92.957,60.903,93.534,61.428,3.3535,1.0654e-4,3.3535,0.0018203,10.374,8.0148,52.262,-0.11827,9.8125,1.5358,-1.1662e-6,30.523,-0.0034915,823.78,41.633,0.057284,5.3572e-4,53.324,44.217,1.6559,0.27865,4601662,66.026,7.5238,0.57594,0.57992,0.3026,0.14325,0.13009,0.25207,0.41358,-2.4443e-4,0,0,0,0,0.0040843,0.0084343,5.5,23.758,80.33,0.0024235,NaN,14.5,1004.2,340.09,0.013551,0.012305
1.0765,56.182,93.779,59.979,94.365,60.727,3.4949,1.14e-4,3.4949,0.001869,10.493,9.5053,52.262,-0.11827,9.8125,1.11,-8.6608e-7,34.009,-0.00401,823.35,41.205,0.057272,5.3568e-4,53.52,44.209,1.693,0.28113,4642141,65.502,7.635,0.57611,0.57822,0.3025,0.14333,0.13027,0.17982,0.29963,3.0993e-4,0,0,0,0,0.0049818,0.0085097,5.5,23.758,79.891,0.0024285,NaN,14.492,1004.1,340.08,0.018374,0.012411
1.0948,57.915,94.875,58.608,95.476,59.762,3.6894,1.2469e-4,3.6894,0.0019365,10.688,11.687,52.262,-0.11826,9.8125,0.49374,-9.0307e-7,36.927,-0.012661,822.8,40.657,0.057256,5.3562e-4,53.813,44.198,1.7482,0.28446,4696402,64.749,7.7956,0.57633,0.57676,0.30238,0.14344,0.13052,0.078469,0.1313,3.9127e-4,0,0,0,0,0.0057368,0.008611,5.5,23.758,79.236,0.0025566,NaN,14.481,1003.9,340.07,0.027561,0.012517
1.1224,60.552,96.474,56.339,97.106,58.344,3.9889,1.4213e-4,3.9889,0.0020415,11.061,15.162,52.262,-0.11826,9.8125,0.49241,-2.2061e-6,-36.786,-0.01165,822.01,39.869,0.057234,5.3554e-4,53.818,44.183,1.7519,0.2893,4775266,63.697,8.0655,0.57667,0.5771,0.3022,0.14359,0.13088,0.078279,0.14223,-1.235e-4,0,0,0,0,-0.0055043,0.0087612,5.5,23.758,78.207,0.0023969,NaN,14.463,1003.6,340.06,0.036547,0.012623
1.159,64.115,98.501,53.26,99.194,56.662,4.4043,1.6764e-4,4.4043,0.0021808,11.7,19.337,52.262,-0.11825,9.8124,1.593,-1.334e-5,-28.13,-0.0010586,820.91,38.768,0.057202,5.3542e-4,53.313,44.162,1.664,0.29551,4876223,62.912,8.4745,0.57712,0.5814,0.30197,0.1438,0.13135,0.2622,0.43936,-2.8455e-4,0,0,0,0,-0.0030852,0.0089565,5.5,23.758,76.995,0.0015223,NaN,14.44,1003.2,340.05,0.011338,0.01273
1.1703,65.235,99.108,52.921,99.823,56.751,4.5383,1.7596e-4,4.5383,0.0022215,11.927,20.495,52.262,-0.11825,9.8124,1.8493,-1.3042e-5,-23.776,0.001121,820.09,37.947,0.057179,5.3533e-4,53.201,44.145,1.6465,0.29737,4906494,62.567,8.6037,0.57726,0.58296,0.3019,0.14386,0.1315,0.30682,0.50723,-6.6256e-5,0,0,0,0,-0.0021765,0.0090159,5.5,23.758,76.7,0.0014219,NaN,14.433,1003,340.05,0.0096952,0.012836
1.18,66.199,99.62,52.256,100.36,56.398,4.6549,1.8322e-4,4.6549,0.0022552,12.13,21.214,52.262,-0.11825,9.8124,2.0217,-1.3027e-5,-19.567,4.2449e-4,819.73,37.586,0.057169,5.353e-4,53.127,44.138,1.6343,0.29895,4932137,62.263,8.712,0.57737,0.58414,0.30184,0.14391,0.13162,0.3372,0.55301,-4.4599e-4,0,0,0,0,-0.0014586,0.0090665,5.5,23.758,76.489,0.0013972,NaN,14.427,1002.9,340.04,0.0087984,0.012955
1.1888,67.077,100.08,51.681,100.83,56.056,4.7624,1.8994e-4,4.7624,0.0022851,12.319,21.709,52.262,-0.11825,9.8124,2.138,-1.3169e-5,-15.432,0.001975,819.41,37.268,0.057159,5.3526e-4,53.078,44.132,1.6265,0.30037,4955187,61.984,8.8072,0.57748,0.58501,0.30179,0.14396,0.13173,0.3579,0.58343,3.6107e-4,0,0,0,0,-8.987e-4,0.0091121,5.5,23.758,76.335,0.0013958,NaN,14.421,1002.8,340.04,0.0082604,0.013069
1.197,67.906,100.5,51.177,101.28,55.716,4.8649,1.9634e-4,4.8649,0.0023124,12.5,22.026,52.262,-0.11825,9.8124,2.2112,-1.3087e-5,-11.345,5.8336e-4,819.12,36.976,0.057151,5.3523e-4,53.048,44.127,1.622,0.3017,4976640,61.718,8.8932,0.57758,0.58561,0.30174,0.14401,0.13183,0.371,0.6025,-3.1298e-4,0,0,0,0,-4.8146e-4,0.0091546,5.5,23.758,76.225,0.0013958,NaN,14.416,1002.7,340.03,0.0079286,0.013177
1.205,68.704,100.91,50.739,101.7,55.366,4.9648,2.0259e-4,4.9648,0.0023379,12.676,22.156,52.262,-0.11824,9.8124,2.2374,-1.2958e-5,-7.2955,0.0016442,818.84,36.698,0.057143,5.352e-4,53.038,44.121,1.6212,0.30297,4997259,61.461,8.9717,0.57768,0.58589,0.3017,0.14405,0.13193,0.37571,0.60951,-3.581e-4,0,0,0,0,-1.9744e-4,0.0091952,5.5,23.758,76.151,0.0014145,NaN,14.41,1002.6,340.03,0.0077714,0.013289
1.2127,69.49,101.3,50.353,102.12,55.001,5.0639,2.088e-4,5.0639,0.0023625,12.849,22.127,52.262,-0.11824,9.8124,2.2252,-1.2737e-5,-3.2827,0.0020912,818.57,36.428,0.057135,5.3517e-4,53.044,44.116,1.6233,0.30421,5017431,61.206,9.0449,0.57777,0.5859,0.30165,0.14409,0.13203,0.37356,0.60597,4.6578e-4,0,0,0,0,-3.965e-5,0.0092347,5.5,23.758,76.109,0.0014628,NaN,14.405,1002.5,340.03,0.0077527,0.013397
1.2205,70.277,101.69,50.006,102.52,54.618,5.1642,2.1509e-4,5.1642,0.0023864,13.02,21.965,52.262,-0.11824,9.8124,2.1825,-1.2952e-5,0.70581,0.0019563,818.31,36.162,0.057128,5.3515e-4,53.063,44.111,1.6278,0.30544,5037413,60.95,9.1144,0.57787,0.58571,0.3016,0.14413,0.13213,0.36595,0.59527,-7.1988e-5,0,0,0,0,1.8182e-6,0.0092739,5.5,23.758,76.1,0.0015112,NaN,14.4,1002.4,340.03,0.0078281,0.013503
1.2283,71.074,102.09,49.695,102.93,54.213,5.2668,2.2155e-4,5.2668,0.0024101,13.191,21.666,52.262,-0.11824,9.8124,2.1094,-1.3046e-5,4.6655,0.0015083,818.04,35.895,0.05712,5.3512e-4,53.096,44.105,1.6347,0.30668,5057450,60.69,9.1813,0.57796,0.58531,0.30156,0.14418,0.13223,0.35294,0.5764,-5.054e-5,0,0,0,0,7.8807e-5,0.0093132,5.5,23.758,76.121,0.0015824,NaN,14.395,1002.3,340.02,0.0080191,0.013609
1.2363,71.895,102.48,49.414,103.35,53.78,5.3733,2.2827e-4,5.3733,0.002434,13.363,21.226,52.262,-0.11824,9.8124,2.0045,-1.3061e-5,8.5953,0.002153,817.77,35.623,0.057112,5.3509e-4,53.143,44.1,1.6442,0.30794,5077836,60.422,9.2467,0.57806,0.58473,0.30151,0.14422,0.13233,0.33437,0.54905,-1.2655e-4,0,0,0,0,2.6531e-4,0.0093532,5.5,23.758,76.174,0.0016573,NaN,14.39,1002.2,340.02,0.0083495,0.013715
1.2447,72.752,102.9,49.158,103.78,53.311,5.4856,2.3538e-4,5.4856,0.0024585,13.539,20.63,52.262,-0.11824,9.8124,1.8652,-1.2897e-5,12.486,0.0024273,817.49,35.342,0.057104,5.3506e-4,53.205,44.094,1.6565,0.30924,5098914,60.14,9.312,0.57816,0.58397,0.30147,0.14427,0.13243,0.30984,0.5131,6.1263e-5,0,0,0,0,5.5514e-4,0.0093946,5.5,23.758,76.262,0.001761,NaN,14.384,1002.1,340.02,0.008859,0.013828
1.2536,73.666,103.33,48.931,104.24,52.792,5.6063,2.4307e-4,5.6063,0.0024842,13.718,19.818,52.262,-0.11823,9.8124,1.6752,-1.3138e-5,16.318,0.0021979,817.19,35.046,0.057096,5.3503e-4,53.29,44.089,1.673,0.31063,5121332,59.835,9.3789,0.57827,0.58299,0.30142,0.14431,0.13254,0.27671,0.46215,-2.6207e-4,0,0,0,0,9.3974e-4,0.0094382,5.5,23.758,76.39,0.0018761,NaN,14.378,1002,340.01,0.0097478,0.013935
1.2633,74.675,103.81,48.724,104.74,52.196,5.741,2.5171e-4,5.741,0.0025121,13.907,18.717,52.262,-0.11823,9.8124,1.4162,-1.2765e-5,20.038,0.002365,816.87,34.727,0.057086,5.3499e-4,53.408,44.082,1.6956,0.31216,5146165,59.488,9.4513,0.5784,0.58181,0.30136,0.14437,0.13267,0.2321,0.39235,2.641e-4,0,0,0,0,0.0014033,0.0094857,5.5,23.758,76.568,0.0020224,NaN,14.372,1001.9,340.01,0.011369,0.014042
1.2747,75.859,104.37,48.501,105.32,51.485,5.9003,2.6204e-4,5.9003,0.0025446,14.112,17.273,52.262,-0.11823,9.8124,1.0808,-1.2731e-5,23.601,7.941e-4,816.51,34.365,0.057076,5.3496e-4,53.563,44.075,1.7251,0.31393,5174887,59.061,9.5372,0.57854,0.58055,0.30129,0.14443,0.13281,0.17532,0.30081,2.598e-4,0,0,0,0,0.0019248,0.0095405,5.5,23.758,76.816,0.0021323,NaN,14.364,1001.8,340,0.014661,0.014176
1.2893,77.394,105.08,48.204,106.05,50.555,6.109,2.7576e-4,6.109,0.0025863,14.352,15.234,52.262,-0.11823,9.8124,0.6122,-1.2581e-5,26.767,-2.0625e-4,816.06,33.918,0.057063,5.3491e-4,53.785,44.066,1.7671,0.3162,5211530,58.46,9.654,0.57872,0.57938,0.30121,0.14451,0.133,0.097873,0.17016,2.5582e-4,0,0,0,0,0.0024405,0.0096102,5.5,23.758,77.188,0.0022469,NaN,14.354,1001.6,340,0.021991,0.01431
1.3113,79.716,106.14,47.599,107.15,49.187,6.428,2.9719e-4,6.428,0.002649,14.655,12.399,52.262,-0.11822,9.8124,0.0015191,-1.3369e-5,-28.271,-0.24591,815.43,33.289,0.057045,5.3484e-4,54.085,44.054,1.8239,0.31941,5263350,57.558,9.8416,0.57898,0.57898,0.30109,0.14463,0.13326,2.3822e-4,0.0035942,-2.0126e-4,0,0,0,0,-0.0026682,0.0097125,5.5,23.758,77.799,0.0024287,NaN,14.339,1001.3,339.99,0.032987,0.014467
1.3443,83.244,107.71,46.442,108.75,47.27,6.9175,3.3126e-4,6.9175,0.0027438,15.007,8.8101,52.262,-0.11822,9.8124,0.69195,-1.3678e-5,-24.961,-0.0028237,814.49,32.346,0.057018,5.3474e-4,53.755,44.035,1.7672,0.3239,5335756,56.674,10.138,0.57936,0.5802,0.30093,0.14479,0.13364,0.11096,0.19814,1.8397e-4,0,0,0,0,-0.0020228,0.0098606,5.5,23.758,78.694,0.002689,NaN,14.316,1000.9,339.97,0.020905,0.014586
1.3652,85.506,108.69,46.041,109.74,46.512,7.233,3.541e-4,7.233,0.002805,15.171,6.6016,52.262,-0.11821,9.8124,1.1272,-1.407e-5,-19.711,3.2739e-4,813.57,31.421,0.056991,5.3465e-4,53.554,44.017,1.734,0.32681,5382525,56.122,10.346,0.57961,0.5818,0.30083,0.1449,0.13388,0.18328,0.31928,2.4676e-4,0,0,0,0,-0.0012391,0.009951,5.5,23.758,79.165,0.0029944,NaN,14.301,1000.6,339.97,0.012741,0.014699
1.378,86.894,109.28,45.765,110.34,46.088,7.4268,3.6851e-4,7.4268,0.0028429,15.248,5.4469,52.262,-0.11821,9.8124,1.3458,-1.336e-5,-15.292,-3.3942e-4,812.99,30.843,0.056974,5.3459e-4,53.456,44.006,1.7182,0.32858,5411011,55.74,10.476,0.57976,0.58286,0.30076,0.14496,0.13404,0.22034,0.3794,-1.1995e-4,0,0,0,0,-7.3779e-4,0.010005,5.5,23.758,79.389,0.0030555,NaN,14.292,1000.5,339.96,0.010606,0.014807
1.3886,88.056,109.77,45.399,110.83,45.64,7.5889,3.8077e-4,7.5889,0.0028748,15.302,4.6851,52.262,-0.11821,9.8124,1.4769,-1.3402e-5,-11.069,-0.0027719,812.59,30.443,0.056963,5.3454e-4,53.398,43.998,1.7091,0.33003,5434408,55.408,10.58,0.57989,0.5836,0.30071,0.14502,0.13416,0.24281,0.41551,2.1177e-4,0,0,0,0,-3.8317e-4,0.010049,5.5,23.758,79.529,0.0031767,NaN,14.285,1000.3,339.96,0.0095982,0.014912
1.3982,89.111,110.2,45.018,111.27,45.212,7.7359,3.9208e-4,7.7359,0.0029039,15.345,4.1858,52.262,-0.1182,9.8124,1.5528,-1.3155e-5,-6.9427,-0.0013537,812.24,30.096,0.056953,5.3451e-4,53.365,43.991,1.7044,0.33133,5455332,55.102,10.672,0.58,0.58409,0.30066,0.14507,0.13427,0.25591,0.43605,-3.8663e-4,0,0,0,0,-1.4957e-4,0.010088,5.5,23.758,79.616,0.0033302,NaN,14.278,1000.2,339.95,0.009074,0.015017
1.4072,90.113,110.61,44.626,111.67,44.794,7.8753,4.0297e-4,7.8753,0.0029318,15.382,3.8734,52.262,-0.1182,9.8124,1.591,-1.3223e-5,-2.8679,0.0016294,811.92,29.776,0.056943,5.3447e-4,53.349,43.984,1.7027,0.33256,5475002,54.809,10.755,0.58011,0.58439,0.30062,0.14511,0.13438,0.26253,0.44695,-3.3374e-5,0,0,0,0,-2.5335e-5,0.010125,5.5,23.758,79.66,0.0033351,NaN,14.271,1000.1,339.95,0.0087873,0.015122
1.416,91.087,111,44.219,112.07,44.377,8.0107,4.137e-4,8.0107,0.002959,15.415,3.7389,52.262,-0.1182,9.8124,1.593,-1.3248e-5,1.1606,0.0010823,811.61,29.469,0.056934,5.3444e-4,53.35,43.978,1.7039,0.33373,5493882,54.522,10.832,0.58021,0.58451,0.30057,0.14516,0.13448,0.2629,0.448,-1.3565e-4,0,0,0,0,4.1198e-6,0.01016,5.5,23.758,79.668,0.003275,NaN,14.265,999.99,339.94,0.0087045,0.015227
1.4247,92.055,111.39,43.789,112.45,43.951,8.145,4.245e-4,8.145,0.0029861,15.448,3.7744,52.262,-0.1182,9.8124,1.5603,-1.3053e-5,5.1433,8.8713e-4,811.31,29.169,0.056926,5.3441e-4,53.365,43.972,1.7078,0.33489,5512402,54.235,10.905,0.58031,0.58444,0.30053,0.1452,0.13458,0.25726,0.43916,-3.2921e-4,0,0,0,0,8.036e-5,0.010195,5.5,23.758,79.64,0.0032361,NaN,14.259,999.87,339.94,0.0088184,0.015349
1.4335,93.039,111.77,43.326,112.84,43.508,8.2814,4.3559e-4,8.2814,0.0030137,15.482,3.9778,52.262,-0.1182,9.8124,1.4931,-1.3155e-5,9.0815,0.0028759,811.01,28.868,0.056917,5.3438e-4,53.397,43.966,1.7146,0.33605,5530984,53.94,10.975,0.58041,0.58421,0.30049,0.14524,0.13468,0.2457,0.42101,-3.8255e-4,0,0,0,0,2.4882e-4,0.010229,5.5,23.758,79.578,0.0031313,NaN,14.252,999.76,339.94,0.0091348,0.015483
1.4427,94.062,112.17,42.817,113.24,43.038,8.423,4.4726e-4,8.423,0.0030424,15.521,4.3571,52.262,-0.11819,9.8123,1.3895,-1.2922e-5,12.968,0.0049179,810.7,28.56,0.056908,5.3435e-4,53.445,43.96,1.7245,0.33723,5.55e6,53.631,11.044,0.58052,0.58382,0.30045,0.14529,0.13478,0.22794,0.39304,3.6024e-4,0,0,0,0,5.0379e-4,0.010265,5.5,23.758,79.477,0.0029421,NaN,14.246,999.64,339.93,0.0097157,0.015607
1.4524,95.153,112.58,42.241,113.65,42.529,8.574,4.5984e-4,8.574,0.0030729,15.566,4.9438,52.262,-0.11819,9.8123,1.2417,-1.3096e-5,16.781,0.0080037,810.38,28.237,0.056898,5.3431e-4,53.513,43.954,1.7381,0.33848,5570061,53.295,11.114,0.58063,0.58328,0.3004,0.14534,0.13489,0.20279,0.35178,-3.2647e-4,0,0,0,0,8.3741e-4,0.010303,5.5,23.758,79.332,0.0026763,NaN,14.239,999.51,339.93,0.010775,0.015714
1.4632,96.369,113.04,41.555,114.11,41.959,8.742,4.7397e-4,8.742,0.0031064,15.624,5.8102,52.262,-0.11819,9.8123,1.0321,-1.2923e-5,20.468,0.007969,810.03,27.885,0.056888,5.3428e-4,53.611,43.947,1.7572,0.33984,5591819,52.908,11.189,0.58075,0.5826,0.30035,0.14539,0.13501,0.16748,0.29325,2.0713e-4,0,0,0,0,0.0012359,0.010344,5.5,23.758,79.131,0.0023242,NaN,14.231,999.37,339.92,0.012822,0.01582
1.476,97.822,113.57,40.678,114.65,41.28,8.9428,4.9099e-4,8.9428,0.0031457,15.707,7.0273,52.262,-0.11819,9.8123,0.74381,-1.2658e-5,23.94,0.0099095,809.62,27.48,0.056876,5.3423e-4,53.748,43.939,1.7835,0.34144,5617383,52.408,11.278,0.5809,0.58187,0.30029,0.14545,0.13516,0.11963,0.21129,4.818e-4,0,0,0,0,0.0016751,0.010393,5.5,23.758,78.845,0.0020872,NaN,14.221,999.2,339.92,0.017628,0.015925
1.4936,99.83,114.28,39.362,115.37,40.353,9.2209,5.1472e-4,9.2209,0.0031983,15.848,8.8912,52.262,-0.11818,9.8123,0.30499,-1.2317e-5,26.79,0.014668,809.1,26.958,0.056861,5.3418e-4,53.961,43.928,1.8241,0.3436,5651943,51.685,11.407,0.5811,0.58126,0.30022,0.14553,0.13535,0.048387,0.085783,-4.5094e-4,0,0,0,0,0.0020714,0.010459,5.5,23.758,78.394,0.0021757,NaN,14.208,998.96,339.91,0.026443,0.01603
1.5201,102.87,115.3,37.229,116.43,39.075,9.6435,5.5109e-4,9.6435,0.0032743,16.125,11.87,52.262,-0.11818,9.8123,0.39892,-1.2134e-5,-26.32,0.0159,808.35,26.201,0.056839,5.341e-4,53.918,43.913,1.8191,0.34671,5701571,50.746,11.618,0.58139,0.58167,0.3001,0.14566,0.13563,0.063494,0.11722,-8.6906e-6,0,0,0,0,-0.0019638,0.010557,5.5,23.758,77.679,0.002632,NaN,14.188,998.61,339.9,0.030815,0.016138
1.5509,106.44,116.43,34.877,117.6,37.885,10.147,5.9526e-4,10.147,0.0033613,16.544,14.794,52.262,-0.11817,9.8123,1.0597,-1.5208e-5,-18.775,0.0067771,807.36,25.219,0.05681,5.34e-4,53.609,43.893,1.7666,0.35019,5756892,50.05,11.888,0.58171,0.58366,0.29998,0.14579,0.13594,0.17224,0.30503,1.8773e-4,0,0,0,0,-9.7962e-4,0.010669,5.5,23.758,76.968,0.0038165,NaN,14.165,998.19,339.88,0.011607,0.016244
1.5625,107.79,116.84,34.522,118.03,37.854,10.34,6.1258e-4,10.34,0.0033946,16.721,15.531,52.262,-0.11817,9.8123,1.2007,-1.4827e-5,-14.473,0.0028623,806.64,24.491,0.056788,5.3392e-4,53.546,43.879,1.7577,0.35148,5777538,49.693,11.988,0.58183,0.58432,0.29993,0.14584,0.13606,0.19604,0.3451,2.1952e-5,0,0,0,0,-5.7782e-4,0.010711,5.5,23.758,76.775,0.0041498,NaN,14.156,998.03,339.88,0.010182,0.016351
1.5727,108.98,117.19,33.946,118.4,37.478,10.511,6.2819e-4,10.511,0.0034244,16.881,15.882,52.262,-0.11816,9.8123,1.2784,-1.4801e-5,-10.319,0.0062878,806.26,24.117,0.056777,5.3388e-4,53.511,43.871,1.7528,0.35261,5795402,49.37,12.072,0.58194,0.58476,0.29989,0.14589,0.13616,0.20925,0.36682,4.5725e-4,0,0,0,0,-2.9189e-4,0.010746,5.5,23.758,76.648,0.0044117,NaN,14.149,997.89,339.87,0.0095172,0.016455
1.5822,110.1,117.51,33.449,118.74,37.083,10.672,6.4314e-4,10.672,0.0034528,17.034,16.008,52.262,-0.11816,9.8123,1.3104,-1.4473e-5,-6.2446,0.0038311,805.92,23.779,0.056768,5.3384e-4,53.498,43.864,1.7516,0.35364,5811873,49.063,12.146,0.58204,0.58499,0.29985,0.14593,0.13626,0.21472,0.37656,-3.4503e-4,0,0,0,0,-1.0627e-4,0.01078,5.5,23.758,76.569,0.0046556,NaN,14.141,997.76,339.87,0.0092164,0.01656
1.5914,111.18,117.82,33.014,119.07,36.661,10.83,6.5798e-4,10.83,0.0034811,17.182,15.94,52.262,-0.11816,9.8123,1.3038,-1.4534e-5,-2.2339,0.00244,805.6,23.457,0.056758,5.3381e-4,53.502,43.858,1.7535,0.35464,5827618,48.761,12.214,0.58214,0.58506,0.29982,0.14597,0.13635,0.21362,0.37508,-4.3803e-4,0,0,0,0,-1.3524e-5,0.010811,5.5,23.758,76.53,0.0048344,NaN,14.134,997.63,339.86,0.0092006,0.016665
1.6006,112.27,118.13,32.621,119.39,36.206,10.988,6.7316e-4,10.988,0.00351,17.328,15.707,52.262,-0.11816,9.8123,1.2657,-1.4407e-5,1.7228,0.0031713,805.29,23.141,0.056749,5.3378e-4,53.52,43.851,1.758,0.35561,5843039,48.455,12.278,0.58223,0.58499,0.29978,0.14601,0.13644,0.20714,0.36373,1.4304e-4,0,0,0,0,7.9997e-6,0.010843,5.5,23.758,76.528,0.0049677,NaN,14.127,997.5,339.86,0.0094355,0.016772
1.61,113.38,118.43,32.197,119.72,35.764,11.153,6.8913e-4,11.153,0.0035403,17.476,15.57,52.262,-0.11815,9.8123,1.2577,-1.4851e-5,5.7371,0.0039115,804.97,22.821,0.056739,5.3374e-4,53.525,43.845,1.7601,0.3565,5857148,48.145,12.339,0.58232,0.58504,0.29975,0.14605,0.13652,0.2058,0.36183,-3.1626e-4,0,0,0,0,8.8274e-5,0.010874,5.5,23.758,76.563,0.0050584,NaN,14.12,997.37,339.86,0.0094373,0.016888
1.6195,114.5,118.74,31.83,120.04,35.294,11.318,7.055e-4,11.318,0.0035714,17.622,15.247,52.262,-0.11815,9.8123,1.2125,-1.4837e-5,9.6927,0.0046266,804.64,22.498,0.05673,5.3371e-4,53.547,43.838,1.7652,0.35739,5871059,47.831,12.397,0.5824,0.58494,0.29972,0.14608,0.1366,0.19814,0.3491,-1.6014e-4,0,0,0,0,2.5072e-4,0.010906,5.5,23.758,76.636,0.0051853,NaN,14.113,997.24,339.85,0.0097328,0.016994
1.6292,115.66,119.05,31.498,120.37,34.769,11.491,7.228e-4,11.491,0.0036041,17.768,14.724,52.262,-0.11815,9.8123,1.129,-1.4674e-5,13.579,0.0031538,804.31,22.169,0.05672,5.3367e-4,53.586,43.832,1.7736,0.35828,5885203,47.501,12.452,0.58249,0.5847,0.29968,0.14612,0.13669,0.18404,0.32631,3.5883e-4,0,0,0,0,4.8964e-4,0.010938,5.5,23.758,76.749,0.0052294,NaN,14.105,997.1,339.85,0.01036,0.017099
1.6396,116.9,119.37,31.187,120.71,34.175,11.675,7.4169e-4,11.675,0.0036398,17.918,13.974,52.262,-0.11815,9.8123,1.0028,-1.4103e-5,17.377,9.6879e-4,803.97,21.824,0.05671,5.3364e-4,53.646,43.825,1.7856,0.35923,5.9e6,47.141,12.508,0.58258,0.58433,0.29965,0.14616,0.13678,0.16283,0.2902,-3.5071e-4,0,0,0,0,7.9768e-4,0.010971,5.5,23.758,76.91,0.0051723,NaN,14.097,996.96,339.84,0.011588,0.017208
1.6512,118.28,119.74,30.882,121.09,33.469,11.884,7.6336e-4,11.884,0.0036804,18.074,12.902,52.262,-0.11814,9.8123,0.81523,-1.3578e-5,21.035,-5.7262e-5,803.59,21.447,0.056699,5.336e-4,53.734,43.817,1.8032,0.36027,5916520,46.719,12.569,0.58268,0.58385,0.29961,0.1462,0.13687,0.13162,0.23636,-3.7572e-4,0,0,0,0,0.0011621,0.011008,5.5,23.758,77.133,0.0050363,NaN,14.088,996.8,339.84,0.014145,0.017315
1.6653,119.98,120.17,30.594,121.55,32.528,12.141,7.9052e-4,12.141,0.0037307,18.245,11.048,52.262,-0.11814,9.8123,0.46794,-1.2769e-5,24.209,7.5259e-4,803.15,21.006,0.056685,5.3355e-4,53.901,43.808,1.8351,0.36163,5937977,46.139,12.648,0.58282,0.58321,0.29956,0.14625,0.137,0.074735,0.1357,4.94e-4,0,0,0,0,0.0015278,0.011052,5.5,23.758,77.455,0.0048011,NaN,14.077,996.6,339.83,0.021217,0.017424
1.6865,122.53,120.83,30.07,122.23,31.144,12.53,8.3251e-4,12.53,0.0038068,18.45,8.107,52.262,-0.11813,9.8123,0.083135,-1.3084e-5,-25.62,-0.011638,802.54,20.399,0.056667,5.3349e-4,54.091,43.796,1.8718,0.36363,5969352,45.269,12.779,0.58302,0.58303,0.29949,0.14634,0.13719,0.013118,0.026458,4.3387e-4,0,0,0,0,-0.0016924,0.011116,5.5,23.758,77.991,0.0042086,NaN,14.061,996.3,339.82,0.031825,0.017529
1.7183,126.39,121.79,29.123,123.21,29.37,13.121,8.9767e-4,13.121,0.0039199,18.642,3.7961,52.262,-0.11812,9.8122,0.86102,-1.2797e-5,-20.066,-0.0047391,801.63,19.489,0.05664,5.3339e-4,53.72,43.777,1.8078,0.36657,6015668,44.538,13.017,0.58331,0.58461,0.29938,0.14646,0.13747,0.13928,0.2528,3.0366e-4,0,0,0,0,-0.0010217,0.011206,5.5,23.758,78.741,0.004473,NaN,14.035,995.85,339.8,0.012773,0.017633
1.7311,127.95,122.16,29.141,123.58,29.245,13.359,9.2448e-4,13.359,0.003965,18.683,2.4691,52.262,-0.11812,9.8122,1.1009,-1.2067e-5,-15.471,-0.0057978,800.87,18.723,0.056618,5.3331e-4,53.61,43.761,1.7906,0.36773,6033842,44.165,13.117,0.58343,0.58554,0.29934,0.14651,0.13758,0.17944,0.32189,-1.5648e-4,0,0,0,0,-6.0348e-4,0.01124,5.5,23.758,78.969,0.0048676,NaN,14.025,995.66,339.8,0.0099661,0.017739
1.7411,129.17,122.46,28.857,123.88,28.902,13.545,9.4569e-4,13.545,0.0040002,18.704,1.6279,52.262,-0.11812,9.8122,1.2387,-1.2055e-5,-11.199,-0.0069497,800.48,18.333,0.056606,5.3327e-4,53.547,43.753,1.7807,0.36862,6047760,43.856,13.193,0.58352,0.58617,0.29931,0.14654,0.13766,0.20277,0.36135,2.2649e-5,0,0,0,0,-3.1471e-4,0.011266,5.5,23.758,79.102,0.0052609,NaN,14.017,995.52,339.79,0.0088345,0.017843
1.7499,130.25,122.71,28.542,124.13,28.562,13.711,9.6473e-4,13.711,0.0040315,18.716,1.0833,52.262,-0.11812,9.8122,1.321,-1.2166e-5,-7.049,-0.0059758,800.15,18.01,0.056596,5.3324e-4,53.511,43.747,1.7752,0.3694,6059893,43.576,13.257,0.5836,0.5866,0.29928,0.14658,0.13774,0.2168,0.38481,4.6635e-4,0,0,0,0,-1.2417e-4,0.011288,5.5,23.758,79.183,0.0056323,NaN,14.01,995.39,339.79,0.0082606,0.017949
1.7582,131.27,122.95,28.162,124.36,28.181,13.865,9.8275e-4,13.865,0.004061,18.725,1.025,52.262,-0.11811,9.8122,1.3077,-1.2443e-5,-3.0495,-0.0061574,799.87,17.726,0.056588,5.3321e-4,53.517,43.741,1.7775,0.37003,6069808,43.296,13.301,0.58366,0.58661,0.29926,0.1466,0.1378,0.21455,0.38102,1.3734e-4,0,0,0,0,-2.3159e-5,0.011309,5.5,23.758,79.225,0.0059581,NaN,14.004,995.27,339.79,0.0083139,0.018055
1.7665,132.29,123.18,27.732,124.6,27.756,14.021,0.0010011,14.021,0.004091,18.734,1.1442,52.262,-0.11811,9.8122,1.2613,-1.2231e-5,0.90063,-0.006412,799.66,17.512,0.056581,5.3318e-4,53.539,43.736,1.7823,0.37067,6079620,43.006,13.342,0.58373,0.58648,0.29924,0.14663,0.13786,0.20664,0.3684,-3.029e-4,0,0,0,0,2.0132e-6,0.01133,5.5,23.758,79.234,0.0062428,NaN,13.997,995.15,339.78,0.0085695,0.018162
1.7751,133.35,123.42,27.256,124.83,27.294,14.182,0.0010203,14.182,0.0041223,18.745,1.4437,52.262,-0.11811,9.8122,1.1811,-1.2383e-5,4.7902,-0.0049442,799.49,17.347,0.056576,5.3317e-4,53.577,43.733,1.7897,0.37131,6089572,42.702,13.381,0.58379,0.58621,0.29921,0.14666,0.13792,0.19304,0.34553,2.2286e-4,0,0,0,0,5.6757e-5,0.01135,5.5,23.758,79.209,0.006474,NaN,13.99,995.03,339.78,0.0091056,0.018287
1.7842,134.47,123.67,26.716,125.08,26.786,14.352,0.0010411,14.352,0.0041559,18.761,1.9412,52.262,-0.11811,9.8122,1.0629,-1.2404e-5,8.6128,-0.0095579,799.32,17.175,0.056571,5.3315e-4,53.632,43.73,1.8004,0.37198,6.1e6,42.373,13.418,0.58386,0.58583,0.29919,0.14668,0.13799,0.1731,0.31167,2.0629e-4,0,0,0,0,1.8282e-4,0.011372,5.5,23.758,79.148,0.0067307,NaN,13.983,994.9,339.77,0.010059,0.018395
1.7942,135.72,123.93,26.08,125.35,26.217,14.541,0.0010643,14.541,0.0041937,18.784,2.6753,52.262,-0.1181,9.8122,0.89783,-1.2204e-5,12.32,-0.011721,799.13,16.988,0.056566,5.3313e-4,53.709,43.726,1.8152,0.37271,6111255,41.997,13.458,0.58394,0.58535,0.29916,0.14672,0.13806,0.14548,0.26411,9.4026e-6,0,0,0,0,3.7263e-4,0.011396,5.5,23.758,79.042,0.0070669,NaN,13.975,994.75,339.77,0.011824,0.0185
1.806,137.19,124.24,25.29,125.66,25.553,14.764,0.0010922,14.764,0.0042389,18.822,3.6576,52.262,-0.1181,9.8122,0.68213,-1.2764e-5,15.84,-0.015974,798.92,16.775,0.056559,5.3311e-4,53.812,43.721,1.8347,0.37357,6124595,41.528,13.507,0.58403,0.58485,0.29913,0.14675,0.13814,0.10979,0.20109,2.037e-4,0,0,0,0,6.1316e-4,0.011424,5.5,23.758,78.875,0.0074311,NaN,13.965,994.58,339.76,0.015459,0.018618
1.8215,139.11,124.63,24.19,126.05,24.713,15.055,0.0011298,15.055,0.0042996,18.89,5.0602,52.262,-0.1181,9.8122,0.37692,-1.1988e-5,18.97,-0.02689,798.65,16.509,0.056551,5.3308e-4,53.96,43.716,1.8625,0.3747,6142013,40.864,13.575,0.58414,0.5844,0.29909,0.1468,0.13825,0.060091,0.11139,4.6808e-4,0,0,0,0,8.7417e-4,0.01146,5.5,23.758,78.603,0.0078307,NaN,13.953,994.35,339.75,0.023189,0.018724
1.8447,142.01,125.18,22.419,126.62,23.576,15.495,0.0011884,15.495,0.0043943,19.036,7.2937,52.262,-0.11809,9.8122,0.11327,-1.2279e-5,-20.115,-0.090393,798.28,16.132,0.05654,5.3304e-4,54.09,43.708,1.8876,0.37633,6167129,39.868,13.687,0.58431,0.58434,0.29903,0.14687,0.13841,0.01791,0.034338,-2.8442e-5,0,0,0,0,-9.7443e-4,0.011513,5.5,23.758,78.142,0.0084174,NaN,13.934,994.01,339.74,0.034783,0.018852
1.8795,146.37,125.94,19.877,127.41,22.099,16.162,0.0012823,16.162,0.0045459,19.34,9.6587,52.262,-0.11808,9.8122,0.63269,-1.5801e-5,-14.662,-0.013802,797.71,15.568,0.056523,5.3298e-4,53.842,43.696,1.8446,0.37877,6204738,38.993,13.88,0.58457,0.58528,0.29894,0.14697,0.13865,0.10172,0.18805,4.1629e-4,0,0,0,0,-5.1113e-4,0.011589,5.5,23.758,77.518,0.0094457,NaN,13.906,993.5,339.73,0.016087,0.019014
1.8956,148.4,126.26,19.326,127.76,21.915,16.474,0.0013284,16.474,0.0046202,19.503,10.333,52.262,-0.11807,9.8122,0.76483,-1.4965e-5,-10.196,-0.010356,797.22,15.072,0.056508,5.3293e-4,53.78,43.686,1.8353,0.37984,6221243,38.489,13.966,0.58468,0.58572,0.2989,0.14702,0.13876,0.12349,0.2266,1.6709e-4,0,0,0,0,-2.4579e-4,0.011623,5.5,23.758,77.317,0.0094389,NaN,13.892,993.26,339.72,0.013275,0.019145
1.9088,150.08,126.51,18.646,128.03,21.481,16.734,0.0013679,16.734,0.0046836,19.643,10.667,52.262,-0.11807,9.8122,0.84549,-1.5657e-5,-5.9769,-0.0082903,796.93,14.786,0.0565,5.329e-4,53.743,43.68,1.8296,0.38066,6233674,38.055,14.031,0.58477,0.58603,0.29888,0.14706,0.13884,0.13687,0.25059,1.4266e-4,0,0,0,0,-8.4103e-5,0.01165,5.5,23.758,77.209,0.0092167,NaN,13.881,993.07,339.71,0.011953,0.019258
1.9208,151.59,126.74,18.063,128.27,21.025,16.97,0.0014045,16.97,0.004742,19.772,10.759,52.262,-0.11807,9.8122,0.88109,-1.5422e-5,-1.8667,-0.0097148,796.68,14.54,0.056492,5.3287e-4,53.727,43.675,1.8276,0.38135,6244168,37.653,14.084,0.58484,0.58621,0.29885,0.14709,0.13891,0.1428,0.26061,3.9485e-4,0,0,0,0,-8.1743e-6,0.011674,5.5,23.758,77.162,0.0088561,NaN,13.872,992.89,339.71,0.011453,0.019533
1.9322,153.05,126.94,17.555,128.49,20.503,17.197,0.0014403,17.197,0.0047989,19.895,10.591,52.262,-0.11806,9.8122,0.86822,-1.4788e-5,2.1322,-0.011945,796.46,14.312,0.056485,5.3285e-4,53.734,43.671,1.8297,0.382,6253911,37.258,14.13,0.58491,0.58624,0.29883,0.14711,0.13897,0.14066,0.25765,-4.4856e-4,0,0,0,0,1.0629e-5,0.011697,5.5,23.758,77.163,0.0082607,NaN,13.862,992.72,339.7,0.011546,0.019731
1.9438,154.51,127.15,17.094,128.71,19.895,17.427,0.0014772,17.427,0.0048567,20.016,10.178,52.262,-0.11806,9.8122,0.81048,-1.3833e-5,6.0217,-0.011789,796.23,14.088,0.056479,5.3282e-4,53.762,43.666,1.8356,0.38263,6263431,36.848,14.172,0.58498,0.58614,0.2988,0.14714,0.13903,0.13108,0.24064,-4.5174e-4,0,0,0,0,8.4502e-5,0.011718,5.5,23.758,77.211,0.0076303,NaN,13.853,992.55,339.69,0.012322,0.019946
1.9561,156.08,127.36,16.664,128.94,19.144,17.675,0.0015172,17.675,0.0049184,20.138,9.4236,52.262,-0.11806,9.8122,0.68979,-1.4149e-5,9.7727,-0.008447,796,13.855,0.056472,5.328e-4,53.82,43.661,1.847,0.3833,6273594,36.389,14.213,0.58505,0.58589,0.29878,0.14717,0.1391,0.11115,0.20514,3.2651e-4,0,0,0,0,2.2179e-4,0.011741,5.5,23.758,77.308,0.007016,NaN,13.842,992.36,339.69,0.014404,0.020083
1.9705,157.92,127.6,16.21,129.2,18.168,17.966,0.0015647,17.966,0.0049901,20.266,8.2053,52.262,-0.11805,9.8122,0.48521,-1.449e-5,13.207,-0.012216,795.74,13.595,0.056464,5.3277e-4,53.918,43.656,1.8659,0.38409,6285446,35.792,14.26,0.58514,0.58556,0.29875,0.1472,0.13918,0.077687,0.14486,4.2094e-4,0,0,0,0,4.0341e-4,0.011767,5.5,23.758,77.475,0.0064327,NaN,13.831,992.15,339.68,0.020316,0.020241
1.9908,160.51,127.93,15.551,129.55,16.745,18.379,0.0016325,18.379,0.0050893,20.415,6.2103,52.262,-0.11805,9.8121,0.14556,-1.5058e-5,15.841,-0.056371,795.4,13.256,0.056454,5.3274e-4,54.084,43.649,1.8974,0.38515,6301397,34.919,14.328,0.58525,0.58529,0.29871,0.14725,0.13928,0.023057,0.042796,-3.8515e-4,0,0,0,0,5.7719e-4,0.011801,5.5,23.758,77.775,0.0051724,NaN,13.814,991.84,339.67,0.030474,0.020415
2.0213,164.42,128.4,14.402,130.04,14.865,19.004,0.0017349,19.004,0.0052308,20.566,3.6831,52.262,-0.11804,9.8121,0.26616,-1.4072e-5,-14.818,-0.028079,794.91,12.761,0.056439,5.3269e-4,54.027,43.638,1.8888,0.3865,6321260,33.773,14.428,0.5854,0.58552,0.29867,0.14731,0.13942,0.042328,0.080283,8.7442e-5,0,0,0,0,-5.016e-4,0.011847,5.5,23.758,78.255,0.0034708,NaN,13.788,991.39,339.65,0.036213,0.020547
2.0575,169.08,128.93,12.966,130.57,13.059,19.75,0.0018552,19.75,0.0053819,20.666,1.5601,52.262,-0.11803,9.8121,0.58332,-1.1256e-5,-8.3417,-0.021666,794.26,12.112,0.056419,5.3262e-4,53.876,43.625,1.8638,0.38793,6341974,32.868,14.542,0.58555,0.58616,0.29862,0.14737,0.13956,0.093716,0.17524,-2.7041e-4,0,0,0,0,-1.5781e-4,0.011896,5.5,23.758,78.688,0.0028948,NaN,13.758,990.84,339.64,0.016472,0.020691
2.074,171.2,129.15,12.754,130.79,12.781,20.091,0.0019091,20.091,0.0054445,20.686,0.83446,52.262,-0.11802,9.8121,0.70341,-1.0003e-5,-3.8911,-0.016914,793.74,11.598,0.056403,5.3256e-4,53.82,43.614,1.8555,0.38863,6352176,32.35,14.6,0.58563,0.58651,0.29859,0.1474,0.13963,0.11344,0.21011,-4.4644e-4,0,0,0,0,-3.4216e-5,0.011916,5.5,23.758,78.79,0.003795,NaN,13.744,990.59,339.63,0.013689,0.020825
